{
  "type": "FeatureCollection",
  "features": [
    {
      "type": "Feature",
      "properties": {
        "desc": "East Asia",
        "name": "eastasia",
        "marker-symbol": "circle",
        "marker-size": "medium",
        "marker-color": "#00a1f1"
      },
      "geometry": {
        "type": "Point",
        "coordinates": [
          114.188,
          22.267
        ]
      }
    },
    {
      "type": "Feature",
      "properties": {
        "desc": "Southeast Asia",
        "name": "southeastasia",
        "marker-symbol": "circle",
        "marker-size": "medium",
        "marker-color": "#00a1f1"
      },
      "geometry": {
        "type": "Point",
        "coordinates": [
          103.833,
          1.283
        ]
      }
    },
    {
      "type": "Feature",
      "properties": {
        "desc": "Central US",
        "name": "centralus",
        "marker-symbol": "circle",
        "marker-size": "medium",
        "marker-color": "#00a1f1"
      },
      "geometry": {
        "type": "Point",
        "coordinates": [
          -93.6208,
          41.5908
        ]
      }
    },
    {
      "type": "Feature",
      "properties": {
        "desc": "East US",
        "name": "eastus",
        "marker-symbol": "circle",
        "marker-size": "medium",
        "marker-color": "#00a1f1"
      },
      "geometry": {
        "type": "Point",
        "coordinates": [
          -79.8164,
          37.3719
        ]
      }
    },
    {
      "type": "Feature",
      "properties": {
        "desc": "East US 2",
        "name": "eastus2",
        "marker-symbol": "circle",
        "marker-size": "medium",
        "marker-color": "#00a1f1"
      },
      "geometry": {
        "type": "Point",
        "coordinates": [
          -78.3889,
          36.6681
        ]
      }
    },
    {
      "type": "Feature",
      "properties": {
        "desc": "West US",
        "name": "westus",
        "marker-symbol": "circle",
        "marker-size": "medium",
        "marker-color": "#00a1f1"
      },
      "geometry": {
        "type": "Point",
        "coordinates": [
          -122.417,
          37.783
        ]
      }
    },
    {
      "type": "Feature",
      "properties": {
        "desc": "North Central US",
        "name": "northcentralus",
        "marker-symbol": "circle",
        "marker-size": "medium",
        "marker-color": "#00a1f1"
      },
      "geometry": {
        "type": "Point",
        "coordinates": [
          -87.6278,
          41.8819
        ]
      }
    },
    {
      "type": "Feature",
      "properties": {
        "desc": "South Central US",
        "name": "southcentralus",
        "marker-symbol": "circle",
        "marker-size": "medium",
        "marker-color": "#00a1f1"
      },
      "geometry": {
        "type": "Point",
        "coordinates": [
          -98.5,
          29.4167
        ]
      }
    },
    {
      "type": "Feature",
      "properties": {
        "desc": "North Europe",
        "name": "northeurope",
        "marker-symbol": "circle",
        "marker-size": "medium",
        "marker-color": "#00a1f1"
      },
      "geometry": {
        "type": "Point",
        "coordinates": [
          -6.2597,
          53.3478
        ]
      }
    },
    {
      "type": "Feature",
      "properties": {
        "desc": "West Europe",
        "name": "westeurope",
        "marker-symbol": "circle",
        "marker-size": "medium",
        "marker-color": "#00a1f1"
      },
      "geometry": {
        "type": "Point",
        "coordinates": [
          4.9,
          52.3667
        ]
      }
    },
    {
      "type": "Feature",
      "properties": {
        "desc": "Japan West",
        "name": "japanwest",
        "marker-symbol": "circle",
        "marker-size": "medium",
        "marker-color": "#00a1f1"
      },
      "geometry": {
        "type": "Point",
        "coordinates": [
          135.5022,
          34.6939
        ]
      }
    },
    {
      "type": "Feature",
      "properties": {
        "desc": "Japan East",
        "name": "japaneast",
        "marker-symbol": "circle",
        "marker-size": "medium",
        "marker-color": "#00a1f1"
      },
      "geometry": {
        "type": "Point",
        "coordinates": [
          139.77,
          35.68
        ]
      }
    },
    {
      "type": "Feature",
      "properties": {
        "desc": "Brazil South",
        "name": "brazilsouth",
        "marker-symbol": "circle",
        "marker-size": "medium",
        "marker-color": "#00a1f1"
      },
      "geometry": {
        "type": "Point",
        "coordinates": [
          -46.633,
          -23.55
        ]
      }
    },
    {
      "type": "Feature",
      "properties": {
        "desc": "Australia East",
        "name": "australiaeast",
        "marker-symbol": "circle",
        "marker-size": "medium",
        "marker-color": "#00a1f1"
      },
      "geometry": {
        "type": "Point",
        "coordinates": [
          151.2094,
          -33.86
        ]
      }
    },
    {
      "type": "Feature",
      "properties": {
        "desc": "Australia Southeast",
        "name": "australiasoutheast",
        "marker-symbol": "circle",
        "marker-size": "medium",
        "marker-color": "#00a1f1"
      },
      "geometry": {
        "type": "Point",
        "coordinates": [
          144.9631,
          -37.8136
        ]
      }
    },
    {
      "type": "Feature",
      "properties": {
        "desc": "South India",
        "name": "southindia",
        "marker-symbol": "circle",
        "marker-size": "medium",
        "marker-color": "#00a1f1"
      },
      "geometry": {
        "type": "Point",
        "coordinates": [
          80.1636,
          12.9822
        ]
      }
    },
    {
      "type": "Feature",
      "properties": {
        "desc": "Central India",
        "name": "centralindia",
        "marker-symbol": "circle",
        "marker-size": "medium",
        "marker-color": "#00a1f1"
      },
      "geometry": {
        "type": "Point",
        "coordinates": [
          73.9197,
          18.5822
        ]
      }
    },
    {
      "type": "Feature",
      "properties": {
        "desc": "West India",
        "name": "westindia",
        "marker-symbol": "circle",
        "marker-size": "medium",
        "marker-color": "#00a1f1"
      },
      "geometry": {
        "type": "Point",
        "coordinates": [
          72.868,
          19.088
        ]
      }
    },
    {
      "type": "Feature",
      "properties": {
        "desc": "Canada Central",
        "name": "canadacentral",
        "marker-symbol": "circle",
        "marker-size": "medium",
        "marker-color": "#00a1f1"
      },
      "geometry": {
        "type": "Point",
        "coordinates": [
          -79.383,
          43.653
        ]
      }
    },
    {
      "type": "Feature",
      "properties": {
        "desc": "Canada East",
        "name": "canadaeast",
        "marker-symbol": "circle",
        "marker-size": "medium",
        "marker-color": "#00a1f1"
      },
      "geometry": {
        "type": "Point",
        "coordinates": [
          -71.217,
          46.817
        ]
      }
    },
    {
      "type": "Feature",
      "properties": {
        "desc": "UK South",
        "name": "uksouth",
        "marker-symbol": "circle",
        "marker-size": "medium",
        "marker-color": "#00a1f1"
      },
      "geometry": {
        "type": "Point",
        "coordinates": [
          -0.799,
          50.941
        ]
      }
    },
    {
      "type": "Feature",
      "properties": {
        "desc": "UK West",
        "name": "ukwest",
        "marker-symbol": "circle",
        "marker-size": "medium",
        "marker-color": "#00a1f1"
      },
      "geometry": {
        "type": "Point",
        "coordinates": [
          -3.084,
          53.427
        ]
      }
    },
    {
      "type": "Feature",
      "properties": {
        "desc": "West Central US",
        "name": "westcentralus",
        "marker-symbol": "circle",
        "marker-size": "medium",
        "marker-color": "#00a1f1"
      },
      "geometry": {
        "type": "Point",
        "coordinates": [
          -110.234,
          40.89
        ]
      }
    },
    {
      "type": "Feature",
      "properties": {
        "desc": "West US 2",
        "name": "westus2",
        "marker-symbol": "circle",
        "marker-size": "medium",
        "marker-color": "#00a1f1"
      },
      "geometry": {
        "type": "Point",
        "coordinates": [
          -119.852,
          47.233
        ]
      }
    },
    {
      "type": "Feature",
      "properties": {
        "name": "germanycentral",
        "desc": "Germany Central",
        "marker-symbol": "circle",
        "marker-size": "medium",
        "marker-color": "#00a1f1"
      },
      "geometry": {
        "type": "Point",
        "coordinates": [
          8.683,
          50.117
        ]
      }
    },
    {
      "type": "Feature",
      "properties": {
        "name": "germanywestcentral",
        "desc": "Germany West Central",
        "marker-symbol": "circle",
        "marker-size": "medium",
        "marker-color": "#00a1f1"
      },
      "geometry": {
        "type": "Point",
        "coordinates": [
          6.975,
          50.337
        ]
      }
    },
    {
      "type": "Feature",
      "properties": {
        "name": "germanynorth",
        "desc": "Germany North",
        "marker-symbol": "circle",
        "marker-size": "medium",
        "marker-color": "#00a1f1"
      },
      "geometry": {
        "type": "Point",
        "coordinates": [
          10.622,
          53.584
        ]
      }
    },
    {
      "type": "Feature",
      "properties": {
        "name": "germanynortheast",
        "desc": "Germany Northeast",
        "marker-symbol": "circle",
        "marker-size": "medium",
        "marker-color": "#00a1f1"
      },
      "geometry": {
        "type": "Point",
        "coordinates": [
          11.616,
          52.133
        ]
      }
    },
    {
      "type": "Feature",
      "properties": {
        "name": "chinaeast",
        "desc": "China East",
        "marker-symbol": "circle",
        "marker-size": "medium",
        "marker-color": "#00a1f1"
      },
      "geometry": {
        "type": "Point",
        "coordinates": [
          121.474,
          31.228
        ]
      }
    },
    {
      "type": "Feature",
      "properties": {
        "name": "chinanorth",
        "desc": "China North",
        "marker-symbol": "circle",
        "marker-size": "medium",
        "marker-color": "#00a1f1"
      },
      "geometry": {
        "type": "Point",
        "coordinates": [
          116.383,
          39.916
        ]
      }
    },
    {
      "type": "Feature",
      "properties": {
        "name": "southafricawest",
        "desc": "South Africa West",
        "marker-symbol": "circle",
        "marker-size": "medium",
        "marker-color": "#00a1f1"
      },
      "geometry": {
        "type": "Point",
        "coordinates": [
          19.917,
          -34.230
        ]
      }
    },
    {
      "type": "Feature",
      "properties": {
        "name": "southafricanorth",
        "desc": "South Africa North",
        "marker-symbol": "circle",
        "marker-size": "medium",
        "marker-color": "#00a1f1"
      },
      "geometry": {
        "type": "Point",
        "coordinates": [
          26.158,
          -29.530
        ]
      }
    },
    {
      "type": "Feature",
      "properties": {
        "name": "switzerlandnorth",
        "desc": "Switzerland North",
        "marker-symbol": "circle",
        "marker-size": "medium",
        "marker-color": "#00a1f1"
      },
      "geometry": {
        "type": "Point",
        "coordinates": [
          8.541,
          47.372
        ]
      }
    },
    {
      "type": "Feature",
      "properties": {
        "name": "switzerlandwest",
        "desc": "Switzerland West",
        "marker-symbol": "circle",
        "marker-size": "medium",
        "marker-color": "#00a1f1"
      },
      "geometry": {
        "type": "Point",
        "coordinates": [
          6.151,
          46.202
        ]
      }
    },
    {
      "type": "Feature",
      "properties": {
        "name": "norwayeast",
        "desc": "Norway East",
        "marker-symbol": "circle",
        "marker-size": "medium",
        "marker-color": "#00a1f1"
      },
      "geometry": {
        "type": "Point",
        "coordinates": [
          10.982,
          59.917
        ]
      }
    },
    {
      "type": "Feature",
      "properties": {
        "name": "norwaywest",
        "desc": "Norway West",
        "marker-symbol": "circle",
        "marker-size": "medium",
        "marker-color": "#00a1f1"
      },
      "geometry": {
        "type": "Point",
        "coordinates": [
          5.445,
          60.354
        ]
      }
    }
  ]
}
